City_ID,City,Lat,Lng,Max Temp,Humidity,Cloudiness,Wind Speed,Country
0,albany,-34.029,118.9807,289.24,56,100,4.65,AU
1,guateque,4.67,-73.4211,288.59,86,100,1.22,CO
2,tual,-5.6691,132.6724,299.97,83,44,6.59,ID
3,iqaluit,73.4561,-82.358,257.56,82,5,2.64,CA
4,leava,-15.4123,-179.629,299.57,84,100,5.04,FJ
5,anadyr,70.0649,179.8555,270.85,81,100,9.41,RU
6,nikolayevsk-on-amure,53.6531,139.0653,271.03,70,54,5.16,RU
7,yeppoon,-21.9752,151.4558,295.82,70,0,4.12,AU
8,san andros,23.6835,-78.2995,299.69,71,4,3.85,BS
9,bafoulabe,14.5395,-10.1363,304.06,39,52,2.52,ML
10,rebola,3.4513,9.0933,299.99,81,100,2.69,GQ
11,cumaribo,5.5617,-69.0148,302.0,70,97,4.0,CO
12,chapeco,-27.228,-52.5424,304.23,61,0,4.12,BR
13,nikel,69.1646,30.2989,272.02,98,100,3.65,RU
14,kavaratti,10.9631,73.577,301.41,74,100,2.65,IN
15,owen sound,44.4521,-81.0716,281.18,95,100,4.79,CA
16,curillo,0.7668,-76.0635,299.02,73,100,0.95,CO
17,satipo,-11.3563,-74.8503,289.88,78,99,0.39,PE
18,podujeva,43.0311,21.3199,291.47,49,100,1.53,RS
19,labrador city,53.6035,-64.8512,276.9,71,88,5.43,CA
20,sines,37.9693,-9.1053,290.1,74,100,4.31,PT
21,hiratacho,36.8865,132.0182,287.95,45,2,1.87,JP
22,padre las casas,18.8998,-70.954,295.16,80,83,1.15,DO
23,dalbandin,28.0586,64.3255,299.17,17,96,1.86,PK
24,dharchula,30.2029,80.6542,270.43,70,5,0.91,IN
25,letlhakeng,-23.4141,25.1196,300.86,19,69,2.16,BW
26,port isabel,26.9572,-96.9434,299.75,74,88,5.57,US
27,lhasa,30.3436,91.6643,271.32,63,36,1.5,CN
28,villa huidobro,-35.3786,-64.8216,297.33,70,97,0.3,AR
29,senanga,-15.8797,23.2948,295.77,52,91,2.76,ZM
30,west bay,19.7888,-81.3445,301.48,75,22,5.6,KY
31,qoryooley,0.9957,44.2101,299.61,85,99,5.67,SO
32,southside,-26.2234,152.4065,289.31,96,42,0.48,AU
33,sukhothai,17.0484,99.94,296.24,96,98,1.3,TH
34,jiayuguan,40.5504,98.5885,279.85,23,85,3.81,CN
35,shache,38.6798,76.5495,284.56,25,80,0.72,CN
36,buon ma thuot,12.9028,108.1294,293.2,96,63,1.81,VN
37,muang xay,20.7403,102.0174,289.58,89,18,0.71,LA
38,tchintabaraden,16.7958,5.6982,304.77,12,3,3.55,NE
39,lerwick,60.2551,-2.4912,281.0,90,100,18.37,GB
40,dengi,9.2562,10.0608,302.16,40,36,0.83,NG
41,hassi messaoud,31.4624,5.7843,297.97,24,72,5.52,DZ
42,yanchep,-30.8343,115.3696,288.55,86,100,1.91,AU
43,leninsk-kuznetsky,54.8398,85.9935,276.65,67,98,7.66,RU
44,howrah,-42.3055,149.7046,286.77,89,99,8.25,AU
45,abalak,57.6169,68.4161,276.09,76,98,2.79,RU
46,zhashkiv,49.2871,30.1156,287.39,89,100,3.81,UA
47,usinsk,66.3228,59.6962,270.42,83,100,11.26,RU
48,jaguarao,-32.3683,-53.5831,296.03,73,40,6.0,UY
49,calbuco,-42.1452,-72.9336,284.25,71,11,9.71,CL
50,choma,-16.0408,25.9438,294.53,70,100,1.73,ZM
51,buala,-8.3172,159.6038,297.48,82,95,0.76,SB
52,shilovo,54.4161,41.1691,272.81,89,9,1.8,RU
53,khorugh,38.1581,72.5718,264.26,56,97,2.11,TJ
54,sierra grande,-41.3391,-65.8955,293.45,33,70,9.24,AR
55,kampot,10.61,104.2875,298.82,87,99,1.23,KH
56,kanker,20.033,81.4431,288.66,78,1,0.93,IN
57,crystal city,28.9411,-99.9369,305.22,27,100,5.06,US
58,ifatsy,-22.4573,47.9582,296.91,80,95,5.42,MG
59,kiruna,67.5667,18.8097,260.1,72,0,2.02,SE
60,savannakhet,16.7294,105.6353,293.55,85,30,2.32,LA
61,pleiku,13.4251,107.7821,294.68,98,75,1.28,VN
62,kristiansund,62.7012,8.3174,267.6,68,100,6.86,NO
63,tame,6.4953,-71.254,306.33,47,100,2.8,CO
64,ayr,-20.3623,147.3598,291.11,89,0,1.81,AU
65,ladario,-18.7167,-56.3194,314.75,18,51,0.78,BR
66,wisconsin rapids,44.628,-89.8521,281.9,87,100,4.01,US
67,kapuskasing,63.1388,-82.4266,273.81,98,100,8.28,CA
68,sathupalli,17.1924,80.9885,295.77,89,100,0.71,IN
69,bulgan,48.767,103.0254,274.65,61,0,1.49,MN
70,sayre,42.1481,-76.4407,285.54,82,100,2.68,US
71,az zuwaytinah,31.3038,19.3916,299.88,61,5,6.26,LY
72,mont-dore,-23.4596,166.7782,294.59,73,5,4.55,NC
73,baltasi,56.3602,49.9506,270.57,71,0,4.91,RU
74,gereida,11.0664,25.118,302.75,18,15,3.42,SD
75,ibaraki,34.859,135.5434,284.9,74,13,2.06,JP
76,port macquarie,-31.3319,154.0546,294.33,82,5,12.35,AU
77,singapore,0.8901,103.4535,301.32,76,100,2.73,SG
78,madara,11.9874,10.2659,302.93,13,100,4.04,NG
79,qaisumah,28.4716,46.2775,299.23,27,22,3.44,SA
80,el gouna,27.2844,33.3482,297.92,44,96,0.38,EG
81,rondonopolis,-16.9419,-54.1691,303.88,47,87,5.6,BR
82,zambezi,-13.3757,23.2346,292.98,71,76,2.38,ZM
83,puerto libertad,-25.7653,-54.3736,305.89,58,0,1.54,AR
84,kurumkan,54.7409,111.6025,268.04,82,100,1.0,RU
85,tirhanimine,35.5532,-4.387,293.31,64,48,3.04,MA
86,machico,32.2163,-16.2042,295.35,83,8,19.49,PT
87,shingu,32.6018,136.5658,291.5,54,0,9.07,JP
88,pervomaysk,54.6944,44.0893,271.16,88,6,2.68,RU
89,xucheng,20.3927,110.4359,296.5,89,100,9.2,CN
90,kismayo,-1.5632,42.2268,299.71,81,94,6.55,SO
91,singoli,24.8529,75.3824,296.24,41,0,2.34,IN
92,tarakan,3.0981,117.6031,300.09,81,35,1.61,ID
93,cotati,38.227,-122.7641,294.63,68,100,3.09,US
94,port blair,10.915,93.0513,300.16,80,100,5.81,IN
95,lycksele,65.9327,19.2274,261.25,95,43,1.04,SE
96,sikasso,11.0861,-5.439,298.7,68,99,1.95,ML
97,oum hadjer,12.5013,19.9574,304.99,28,14,1.77,TD
98,myitkyina,26.5128,98.1362,281.01,68,0,2.37,MM
99,santo angelo,-28.1937,-54.11,301.82,70,2,3.79,BR
100,ad dabbah,18.0126,29.5317,298.58,13,77,5.3,SD
101,una,-15.3448,-39.0792,301.89,70,40,3.09,BR
102,sassenberg,52.0106,8.0441,286.58,70,31,5.69,DE
103,nkurenkuru,-16.3492,19.5578,297.23,46,91,1.38,AO
104,igarka,67.034,82.7304,271.03,85,100,6.35,RU
105,zuni pueblo,34.3718,-108.4933,297.33,12,0,4.28,US
106,ivdel',62.9488,60.7461,272.42,72,93,5.19,RU
107,asahikawa,43.7691,142.4393,276.07,93,95,3.1,JP
108,anacapri,40.5701,14.1219,294.26,72,1,6.41,IT
109,ingeniero guillermo n. juarez,-23.3665,-61.1027,315.75,19,23,9.28,PY
110,rikaze,33.4121,86.0096,264.65,66,66,0.94,CN
111,vadso,72.3514,28.1688,274.49,63,100,7.78,NO
112,cajuru,-21.2702,-47.3584,304.86,44,7,2.58,BR
113,gannan,48.8214,123.4453,273.87,84,5,2.33,CN
114,robbah,31.9272,7.5545,295.67,21,100,2.64,DZ
115,san pedro,17.6498,-86.709,301.61,62,98,6.03,BZ
116,jinchang,39.7391,103.066,279.83,36,11,1.94,CN
117,songea,-10.6768,36.6782,294.65,66,7,1.37,TZ
118,xapuri,-10.5867,-68.3532,311.26,23,88,1.92,BR
119,verkhnevilyuysk,63.9127,119.3714,268.25,97,92,2.27,RU
120,belel,6.9622,15.4069,292.65,88,34,0.7,CF
121,qamdo,34.9529,96.3119,266.6,80,99,0.69,CN
122,betio village,2.9868,172.7646,301.3,77,71,4.56,KI
123,mahabe,-16.549,44.0979,300.02,74,0,3.34,MG
124,okhotsk,58.6678,142.9683,275.75,97,100,18.43,RU
125,rudnya,54.9831,31.2427,277.3,72,100,7.23,RU
126,kununurra,-16.6114,133.2994,298.38,46,0,5.42,AU
127,altania,-23.8829,-53.8819,305.08,41,1,1.7,BR
128,saveh,35.3977,50.4129,290.04,41,2,1.96,IR
129,gao,16.6903,0.4009,307.11,17,100,3.49,ML
130,benoni,-26.0592,28.448,297.22,40,3,2.76,ZA
131,new norfolk,-43.8196,145.4881,284.83,94,100,8.29,AU
132,ves'yegonsk,58.4356,37.8237,273.39,67,44,3.17,RU
133,chadan,50.8846,92.1657,273.15,69,100,0.66,RU
134,la ronge,57.096,-105.6041,278.14,56,0,5.14,CA
135,yulinshi,37.427,109.0252,280.13,59,0,2.19,CN
136,kangding,32.6533,101.0185,270.27,91,78,0.58,CN
137,sangola,17.2874,75.4535,298.65,51,56,4.26,IN
138,asbury,42.4556,-90.9129,292.14,43,0,10.29,US
139,smithers,52.6805,-126.5581,275.01,59,5,1.3,CA
140,sibut,6.1849,19.7979,295.52,89,13,0.86,CF
141,carentan,49.3032,-1.1658,285.86,88,100,3.75,FR
142,rogovskaya,45.8544,38.804,289.53,84,7,2.67,RU
143,broken hill,-30.2421,143.0359,286.82,51,0,7.36,AU
144,santa flavia,38.7889,13.8317,295.87,68,0,8.04,IT
145,yilan,24.7196,122.9638,298.63,66,87,8.73,JP
146,belokurikha,52.0786,84.5713,277.91,63,100,2.81,RU
147,qurayyat,30.6162,37.3251,296.36,29,85,4.19,JO
148,murghob,38.9479,74.5023,270.69,51,100,1.16,TJ
149,jincheng,24.3438,118.325,295.55,96,100,10.04,TW
150,thunder bay,51.8251,-87.5786,279.69,52,94,1.83,CA
151,santyoku,37.119,130.3897,289.52,47,0,5.46,KR
152,mutuali,-14.7852,38.0147,300.36,50,51,2.84,MZ
153,ilebo,-4.7074,20.7806,295.73,82,16,0.59,CD
154,wynyard,-42.7152,143.7024,284.67,89,100,3.61,AU
155,slave lake,56.3458,-114.9508,280.96,50,93,2.46,CA
156,aanekoski,62.6003,25.527,272.5,100,58,1.15,FI
157,kaa-khem,53.1397,95.4344,274.06,88,100,6.35,RU
158,jinjiang,24.7874,118.4081,295.31,80,100,3.04,CN
159,xichang,28.0755,101.3194,270.83,96,10,1.04,CN
160,ust'-ilimsk,59.2482,103.006,274.84,75,100,3.38,RU
161,alo,-17.0685,-178.1258,298.86,82,48,3.52,FJ
162,velingara,13.173,-14.0519,301.77,67,32,2.34,SN
163,cheremukhovo,60.6674,59.0776,268.74,95,100,4.27,RU
164,shuangjiang,26.199,109.5255,287.64,67,71,1.15,CN
165,ulverstone,-42.463,145.618,283.0,99,76,0.46,AU
166,happy valley-goose bay,55.549,-57.2355,277.33,95,100,4.94,CA
167,baruun-urt,47.5034,112.5935,276.26,51,0,2.31,MN
168,kimbe,-6.602,150.4938,299.45,84,100,2.47,PG
169,yudong,29.2706,106.4476,292.79,69,99,0.57,CN
170,valle hermoso,25.7357,-97.9751,307.56,39,93,5.96,MX
171,sayan,-11.2676,-76.9373,294.64,67,66,4.86,PE
172,swakopmund,-21.5295,14.0708,287.32,79,0,3.56,NA
173,priozersk,45.8088,73.6561,284.88,81,100,2.18,KZ
174,nguigmi,15.3179,12.6047,304.88,11,100,4.42,NE
175,bafq,31.6957,55.5302,294.03,28,43,2.23,IR
176,lanzhou,36.4166,103.4207,281.39,52,43,1.41,CN
177,bath,42.4789,-77.4181,284.16,91,100,7.01,US
178,kudymkar,59.6557,54.4316,271.5,82,100,4.91,RU
179,juneau,58.8132,-132.8878,271.49,77,99,1.58,US
180,jebrail,39.2411,47.3857,289.6,60,5,2.01,AZ
181,zahedan,29.9468,60.3536,292.16,32,99,1.4,IR
182,campo gallo,-26.4622,-62.9769,310.55,31,64,2.52,AR
183,korotchaevo,66.8048,77.6748,272.02,80,98,6.08,RU
184,motueka,-40.1319,172.0377,285.97,74,4,10.67,NZ
185,isfana,39.5776,70.0066,270.12,93,100,2.99,KG
186,childress,34.2896,-100.7533,304.63,15,100,6.91,US
187,savelugu,9.873,-1.2228,302.21,54,96,1.86,GH
188,murun-kuren,50.9173,99.1715,273.51,58,9,0.92,MN
189,rio brilhante,-21.3742,-54.472,309.88,27,0,1.65,BR
190,boa vista,1.8588,-60.7579,304.92,55,83,1.22,BR
191,bikenibeu village,-0.6413,175.6997,301.77,74,97,3.1,KI
192,bozeman,44.871,-111.5458,288.2,37,100,2.53,US
193,bokoro,12.9151,17.1513,305.06,13,2,3.88,TD
194,tukrah,33.5123,20.0719,298.74,68,20,6.68,LY
195,janeng,-25.6622,25.1943,294.86,11,42,5.32,BW
196,embarcacion,-23.4607,-64.0613,308.14,24,17,3.28,AR
197,bykovo,49.3752,45.23,280.2,71,100,7.18,RU
198,kotabumi,-4.1007,104.8971,296.64,89,100,2.08,ID
199,charters towers,-22.1586,143.5273,298.58,32,1,2.25,AU
200,gunjur,13.0348,-17.4022,301.44,75,8,3.39,GM
201,dongola,18.7268,29.2372,298.64,16,19,5.43,SD
202,csorna,47.6537,17.1835,290.98,86,100,4.95,HU
203,batken,40.1715,71.0488,287.89,55,100,2.38,KG
204,taichung,24.5366,120.4848,297.9,82,44,9.92,TW
205,syktyvkar,61.6498,50.811,273.14,86,40,4.02,RU
206,igbor,7.5056,8.672,299.79,81,100,2.41,NG
207,san jose del guaviare,0.8847,-72.2712,305.63,47,37,1.79,CO
208,khuzdar,28.216,67.0288,293.78,39,100,2.2,PK
209,oliver,48.9446,-120.6183,285.86,48,100,1.34,US
210,yushu,44.735,126.2961,278.5,45,6,6.12,CN
211,boguchar,49.7946,40.8368,278.99,74,100,5.9,RU
212,honiara,-9.1583,159.5135,300.86,73,99,2.02,SB
213,clarion,41.2714,-79.2037,282.5,95,100,4.75,US
214,hit,32.6202,42.1042,296.72,32,100,2.74,IQ
215,yashkul',46.8178,45.0605,285.34,77,100,8.14,RU
216,belmopan,17.0884,-88.6084,302.23,57,99,1.7,BZ
217,sainte-anne-des-monts,49.297,-66.079,283.87,98,100,6.31,CA
218,songnim,38.832,125.6091,279.32,51,1,1.87,KP
219,sittwe,19.8871,93.7598,296.0,97,10,1.28,MM
220,yarovoye,52.9602,78.5435,276.95,70,100,3.51,RU
221,sirte,31.6558,16.5401,300.09,69,100,2.09,LY
222,malanje,-10.125,18.115,292.13,83,63,1.19,AO
223,raduzhnyy,59.3149,49.423,271.41,78,36,4.52,RU
224,tixkokob,21.0012,-89.3345,306.16,29,19,2.03,MX
225,vredendal,-32.2579,18.5466,295.09,53,100,2.54,ZA
226,ebaye,8.7359,168.2705,301.43,77,100,3.04,MH
227,folkston,30.8394,-82.0848,298.19,36,0,1.79,US
228,duarte,34.2049,-117.9367,303.62,35,0,4.63,US
229,fort stockton,29.7527,-102.3931,301.13,25,100,2.2,US
230,narvik,68.2664,18.2145,264.09,59,7,2.5,SE
231,scott,30.2693,-92.1294,304.27,38,0,3.6,US
232,ebon,4.7525,168.5651,301.63,71,100,1.39,MH
233,bayji,34.7072,42.8409,297.71,36,47,3.92,IQ
234,santa ana pacueco,20.1794,-101.9674,299.55,43,98,2.53,MX
235,vorotynsk,54.3683,36.1913,276.62,85,94,2.87,RU
236,zhanibek,49.4169,47.2498,279.65,68,99,8.63,KZ
237,qarazhal,49.3942,69.6712,277.99,50,100,3.94,KZ
238,funafuti,-8.7332,179.218,304.18,73,92,1.56,TV
239,zhanaozen,42.9573,54.1715,287.39,53,30,4.42,KZ
240,idri,27.2215,13.2795,300.75,16,0,2.28,LY
241,fort mcmurray,55.4426,-111.7444,282.79,33,11,3.95,CA
242,abraham's bay,22.2565,-72.5933,302.06,74,19,6.4,TC
243,pangkalanbuun,-0.7099,112.0424,295.27,98,100,0.51,ID
244,kimberley,-28.8482,25.1174,293.41,23,0,7.37,ZA
245,perry,29.7205,-84.1234,297.05,41,4,1.88,US
246,el maamoura,36.2593,10.9824,295.89,61,100,6.81,TN
247,moose jaw,49.206,-105.4021,283.67,34,61,1.48,CA
248,mulchen,-37.6294,-71.3368,286.35,45,51,4.66,CL
249,burao,8.8403,46.1496,298.68,47,97,1.28,SO
250,shiprock,36.6097,-108.7123,299.26,13,0,1.68,US
251,zabol,31.1451,61.4131,295.95,43,16,5.83,IR
252,prescott,34.3559,-112.6974,305.11,12,0,5.24,US
253,yeniseysk,58.1326,90.9769,275.31,93,100,8.82,RU
254,carbonear,49.5081,-52.8367,282.7,98,100,13.47,CA
255,khartoum,15.5918,32.5667,306.45,13,7,7.19,SD
256,prata,-19.6136,-48.8617,306.1,31,0,4.77,BR
257,mana,5.5571,-53.4463,302.23,72,78,4.98,GF
258,kambove,-9.9554,26.6398,294.36,83,45,1.62,CD
259,shimoda,34.4559,139.368,290.99,54,87,8.09,JP
260,dezhou,37.3078,116.05,284.46,51,0,3.04,CN
261,mogocha,54.9407,120.5176,266.86,80,77,1.22,RU
262,alaghsas,18.6994,7.0777,306.39,10,95,3.77,NE
263,pakxan,18.6005,103.9962,289.9,83,12,1.67,LA
264,thanatpin,17.2664,96.628,297.48,90,25,1.85,MM
265,nema,16.1184,-6.7572,308.6,19,72,3.19,MR
266,agustin codazzi,10.1454,-73.2555,304.29,54,97,1.3,CO
267,mezhdurechenskiy,60.2738,66.7112,272.61,63,100,5.69,RU
268,gunupur,19.154,83.9254,294.84,82,75,1.3,IN
269,extrema,-9.897,-66.781,313.6,18,58,1.84,BR
270,chandler,48.3127,-65.0035,283.51,96,100,2.98,CA
271,new kingman-butler,35.8055,-113.8746,300.83,13,0,2.24,US
272,savanna-la-mar,17.4695,-78.7525,302.61,70,66,2.52,JM
273,qal'at bishah,20.4102,44.0452,297.73,29,0,4.18,SA
274,timimoun,30.3732,0.7376,296.8,33,50,4.64,DZ
275,ar ruways,24.2495,53.3447,304.1,72,0,4.7,AE
276,san rafael,-34.5429,-67.6362,299.14,43,55,5.92,AR
277,howard springs,-15.9491,134.2536,297.12,65,0,4.0,AU
278,alvaraes,-2.3243,-64.7379,307.43,47,43,1.15,BR
279,puerto carreno,6.8084,-65.8504,303.87,59,100,1.63,VE
280,gorom-gorom,15.2458,-1.0962,306.8,24,100,0.68,ML
281,hengchun,22.1355,120.4579,299.09,74,60,4.03,TW
282,victorica,-35.3389,-66.2097,299.59,46,92,7.35,AR
283,goure,15.1894,11.1966,304.89,11,100,3.72,NE
284,yemetsk,64.7395,42.6361,272.96,76,27,4.45,RU
285,abra pampa,-22.5978,-66.3377,288.52,17,100,6.83,AR
286,springbok,-29.0215,17.9385,291.67,48,84,4.87,ZA
287,tortoli,39.5362,9.7809,294.35,68,53,8.26,IT
288,umba,66.0246,35.4506,277.2,77,52,8.69,RU
289,arua,3.0865,30.9345,291.99,88,46,0.7,UG
290,nizhneudinsk,54.6238,98.2335,278.64,68,98,1.36,RU
291,caraballeda,11.2039,-66.7228,302.49,76,90,4.28,VE
292,plastun,45.0951,138.2987,279.13,50,3,13.52,RU
293,hualien city,24.1278,121.8387,296.93,82,100,5.23,TW
294,smithfield,41.9199,-112.0059,295.49,37,0,0.0,US
295,lu-uk,5.5708,122.1922,301.38,70,81,1.09,PH
296,waterford,37.9771,-120.2055,301.03,40,0,3.6,US
297,kratie,12.4898,105.895,295.97,97,100,0.9,KH
298,al ghayzah,18.0354,51.9382,299.23,49,100,5.18,YE
299,naestved,55.0635,11.5732,284.32,95,98,3.88,DK
300,skeldon,4.731,-57.1406,301.9,67,100,1.25,SR
301,leninskoye,58.7498,46.6977,271.46,77,14,3.95,RU
302,aykhal,65.801,109.9742,259.9,100,50,2.33,RU
303,pont rouge,49.7773,-72.096,283.04,94,100,1.88,CA
304,novoishimskiy,53.7468,66.6403,277.13,95,100,7.71,KZ
305,pushkino,39.5692,48.5402,290.85,79,0,1.86,AZ
306,sherbakul',54.7413,72.3325,277.1,69,100,5.5,RU
307,fier,40.7259,19.5221,296.99,40,89,5.01,AL
308,chadron,43.3258,-101.6789,289.08,35,32,3.33,US
309,fallon,38.5688,-118.5599,295.03,26,0,0.0,US
310,hanceville,51.0497,-122.9444,280.48,59,100,0.71,CA
311,jabat,7.7424,169.8992,301.67,78,98,4.69,MH
312,sampacho,-33.3372,-64.6226,305.19,36,31,6.69,AR
313,traralgon,-38.3046,146.7442,283.51,64,58,3.49,AU
314,pahrump,36.5298,-116.8072,305.21,16,3,1.31,US
315,elko,40.1222,-116.5523,292.28,19,3,1.13,US
316,dunkwa,5.7649,-1.8888,296.63,96,99,1.65,GH
317,zavodoukovsk,55.9251,66.9211,277.74,97,100,4.94,RU
318,oravita,45.1192,21.654,295.59,40,95,1.77,RO
319,ghadamis,29.4503,9.5457,298.68,24,40,3.9,LY
320,tbeng meanchey,13.932,104.3017,295.1,96,100,1.04,KH
321,popondetta,-9.0954,148.485,293.95,96,96,1.11,PG
322,babeni,44.9832,24.101,290.13,49,25,1.65,RO
323,steinbach,49.9167,-95.7635,284.42,72,100,4.07,CA
324,strazhitsa,43.1043,25.9222,293.99,46,0,2.06,BG
325,levuka,-17.636,179.2706,298.51,82,43,2.62,FJ
326,bambari,5.8168,20.1743,295.82,88,18,1.01,CF
327,nafpaktos,38.5587,21.9354,289.03,61,83,1.41,GR
328,sinjar,36.0588,42.4488,297.44,39,3,3.17,IQ
329,cholpon-ata,42.8761,77.3589,268.14,73,99,0.68,KG
330,nuuk,66.073,-51.6057,258.88,94,86,0.93,GL
331,chicoana,-25.3867,-65.815,293.81,42,1,5.69,AR
332,sainte-marie,46.5281,-71.1776,287.25,96,100,4.56,CA
333,tromso,71.2583,20.4499,277.4,75,100,4.02,NO
334,nantucket,40.8395,-70.3973,288.2,92,94,11.98,US
335,atherton,-19.1673,143.6676,290.71,61,23,1.64,AU
336,luoyang,34.465,112.3438,286.57,63,0,1.45,CN
337,kristinestad,61.8193,20.3143,276.8,71,100,9.32,FI
338,jingdezhen,29.2448,117.5773,283.82,72,3,1.13,CN
339,doka,14.2175,36.4393,301.11,59,7,1.73,ER
340,timbuktu,19.32,-3.3927,305.4,14,0,2.05,ML
341,yichang,31.3541,111.0944,277.93,89,1,1.19,CN
342,black river,16.896,-78.3391,302.57,70,27,2.82,JM
343,xinxiang,35.2418,113.7239,287.87,49,0,1.77,CN
344,cuilapan de guerrero,16.9638,-96.7902,298.88,25,100,4.12,MX
345,korla,41.3607,85.8507,285.19,29,3,2.82,CN
346,altay,45.9204,89.2878,281.45,34,27,1.61,CN
347,sunland park,31.4714,-106.7384,303.88,13,100,2.88,MX
348,as sulayyil,22.2233,46.1357,297.71,23,0,2.42,SA
349,kuanda,55.5658,116.0512,267.34,74,63,0.64,RU
350,vedea,43.8136,25.6856,295.39,32,0,1.5,RO
351,hotan,38.3269,80.0339,283.48,23,78,3.79,CN
352,ar rutbah,33.015,41.4434,295.49,31,100,1.83,IQ
353,floro,62.1761,3.0498,281.19,49,74,3.88,NO
354,tubarjal,30.3057,39.1811,296.91,27,100,8.86,SA
355,youssoufia,32.2057,-8.2036,292.23,60,100,4.95,MA
356,sakakah,29.4179,39.7268,295.26,30,100,4.84,SA
357,kokshetau,53.5544,68.8264,276.46,95,100,7.78,KZ
358,kiama,-35.0799,151.3592,292.84,79,54,4.36,AU
359,ataq,16.3217,47.5006,296.31,29,5,5.52,YE
360,rock falls,41.6286,-89.8719,293.3,37,0,9.16,US
361,dul'durga,50.8985,113.1995,272.2,83,12,1.69,RU
362,smara,26.8658,-11.5051,297.44,42,0,4.23,EH
363,bukama,-9.0721,25.7213,297.72,71,91,0.51,CD
364,emmett,44.3564,-116.0682,293.65,24,32,2.59,US
365,istaravshan,39.3222,69.1819,275.97,87,43,3.35,TJ
366,zheleznogorsk,56.5783,93.5256,277.24,58,55,9.97,RU
367,mingguang,32.9928,117.7194,286.27,39,92,1.89,CN
368,drouin,-38.3247,145.714,285.43,95,100,6.11,AU
369,pavlodar,53.1284,77.2886,277.19,66,100,3.95,KZ
370,bardai,24.238,17.4549,299.25,16,0,5.19,LY
371,crotone,39.1315,17.5164,296.29,83,37,4.38,IT
372,minas de marcona,-15.156,-74.9232,296.05,55,29,4.23,PE
373,maevatanana,-17.2903,46.6125,301.38,59,35,0.94,MG
374,suntar,62.4086,116.5639,271.08,93,100,2.66,RU
375,jiangzi,28.9972,90.1258,266.28,57,0,3.09,CN
376,balakhta,55.3526,91.8661,276.93,62,87,9.91,RU
377,yoichi,44.1119,139.799,281.36,59,100,13.49,JP
378,nioki,-2.4018,17.9847,295.87,94,69,0.75,CD
379,sergeyevka,53.8751,67.8883,277.28,95,100,8.01,KZ
380,hinton,52.5621,-117.3683,270.24,51,100,1.69,CA
381,laascaanood,7.8167,47.4323,298.03,73,93,5.11,SO
382,horodnya,51.854,31.5741,278.79,87,99,6.31,UA
383,segou,13.4272,-6.0639,305.02,34,68,1.65,ML
384,dara,15.2753,-15.8091,301.97,58,43,6.45,SN
385,luba,2.7811,8.233,299.1,83,100,2.6,GQ
386,darwin,-13.6667,129.9642,298.95,82,3,1.95,AU
387,mil'kovo,55.8383,156.9275,277.93,85,98,9.94,RU
388,apolinario saravia,-23.9541,-63.413,314.95,19,9,6.66,AR
389,banyuls de la marenda,42.7615,3.4162,290.02,53,99,2.76,FR
390,mikkeli,61.7814,27.5455,267.18,72,82,1.66,FI
391,cesme,38.2237,26.4409,291.84,82,0,2.85,TR
392,sake,-1.0593,27.833,291.27,98,100,1.25,CD
393,west wodonga,-36.659,146.8063,276.19,87,24,1.09,AU
394,chegdomyn,55.9486,132.559,252.5,100,94,1.71,RU
395,leh,34.1639,77.7337,263.02,34,26,1.3,IN
396,mananjary,-21.0259,48.2578,295.27,89,99,0.93,MG
397,l'alcora,40.4532,-0.435,277.74,63,24,1.17,ES
398,glace bay,46.4374,-59.7583,291.48,93,100,9.2,CA
399,bani walid,31.2228,14.5131,297.47,60,90,6.64,LY
400,salym,59.4476,72.5772,273.32,79,100,4.96,RU
401,calp,37.6594,0.7736,293.9,43,71,2.79,ES
402,box elder,43.6241,-102.4184,288.23,34,41,2.85,US
403,zaragoza,16.6286,119.7593,301.25,78,100,3.8,PH
404,catriel,-37.9311,-68.8345,300.01,19,89,2.58,AR
405,along,29.5068,94.0933,265.19,93,71,1.5,CN
406,tazacorte,28.6627,-19.3829,297.56,67,100,11.58,ES
407,lusambo,-4.2574,23.5388,295.98,83,5,1.25,CD
408,novokazalinsk,45.8722,62.0358,279.88,73,100,5.24,KZ
409,san luis,-33.9177,-66.3978,302.23,33,83,6.55,AR
410,tshabong,-25.0536,23.0019,296.79,11,0,8.01,BW
411,possneck,50.7284,11.4974,286.72,73,100,1.83,DE
412,siilinjarvi,63.0173,27.4084,271.21,97,0,1.54,FI
413,karymskoye,51.697,114.469,272.25,67,74,1.11,RU
414,aur,7.6921,170.2613,301.81,78,94,5.41,MH
415,avellaneda,-28.8061,-59.7079,306.68,49,18,6.61,AR
416,dehui,44.626,125.7766,278.88,48,2,5.61,CN
417,atar,21.2567,-13.9769,303.0,32,0,3.18,MR
418,rabigh,22.7133,40.0694,296.72,26,5,2.57,SA
419,general roca,-40.4357,-67.7741,293.11,39,90,3.66,AR
420,formosa do rio preto,-11.0683,-45.6338,310.23,19,57,3.23,BR
421,noosa heads,-25.8987,153.893,294.95,69,13,4.24,AU
422,slavonski brod,45.1382,18.1519,290.62,88,100,2.13,HR
423,pierre,43.5311,-99.4688,289.51,35,9,3.51,US
424,chibougamau,58.535,-76.6071,275.49,61,96,3.83,CA
425,villa canas,-34.2004,-61.9948,296.47,83,100,4.1,AR
426,blackwater,-24.7433,148.7927,290.84,74,4,1.33,AU
427,punta alta,-39.7993,-62.228,293.56,59,100,4.4,AR
428,khandyga,67.2953,136.1218,249.17,100,93,0.98,RU
429,lulea,64.7001,22.2683,277.21,49,0,4.92,SE
430,gambela,7.5029,34.0042,296.63,82,20,0.68,ET
431,kurchatov,50.216,78.1987,278.15,46,96,2.82,KZ
432,kargil,35.4069,75.8975,259.44,57,96,2.08,PK
433,palmer,60.5265,-144.1925,269.91,40,0,4.41,US
434,pueblo nuevo,8.0977,-74.9685,305.53,56,100,1.97,CO
435,huocheng,45.3398,81.8441,272.61,66,94,2.47,KZ
436,macas,-2.8397,-76.2836,305.63,46,20,1.1,EC
437,jiwani,23.7528,62.09,300.04,71,0,0.74,PK
438,fort-shevchenko,43.9411,49.373,289.47,87,27,5.9,KZ
439,marco island,25.8743,-81.8013,304.29,45,0,4.12,US
440,uliastay,47.9042,95.455,274.36,42,0,2.6,MN
441,san juan de miraflores,-4.6697,-72.8978,305.92,48,96,1.49,PE
442,pemangkat,1.3358,109.069,298.9,85,78,1.09,ID
443,basco,20.1991,121.1877,300.65,79,84,10.86,PH
444,madimba,-10.1723,40.5649,299.71,82,24,3.53,TZ
445,jakiri,5.9936,10.4646,292.38,89,99,1.86,CM
446,viqueque,-9.5006,126.8149,300.01,72,5,1.67,TL
447,chebba,35.4043,11.6451,296.36,64,100,5.04,TN
448,ginir,7.5795,40.7787,291.25,64,48,2.36,ET
449,xuddur,4.3536,43.5749,295.55,84,81,3.9,SO
450,barabinsk,55.2874,78.5836,276.52,74,56,5.23,RU
451,guardo,42.959,-5.1606,276.88,90,100,1.67,ES
452,zonguldak,42.247,31.563,294.76,72,18,6.66,TR
453,ytyk-kyuyel',60.3528,134.3357,262.27,92,28,3.14,RU
454,mudgee,-31.906,149.3787,287.38,67,2,1.46,AU
455,bernardo de irigoyen,-26.3272,-53.3317,299.84,70,18,1.29,BR
456,upington,-28.0136,21.7907,290.89,43,6,5.36,ZA
457,vryburg,-26.119,24.6784,295.54,10,0,8.97,BW
458,aldan,58.0773,124.109,264.96,98,99,1.41,RU
459,jimenez,28.6316,-105.2723,300.4,16,100,1.03,MX
460,harstad,69.2104,16.2539,277.18,75,100,1.03,NO
461,dera bugti,29.21,69.3806,294.21,49,51,1.37,PK
462,kavieng,-1.7673,150.1897,301.71,75,100,5.57,PG
463,ventspils,58.6402,21.2639,279.03,95,100,14.05,EE
464,virac,13.4595,124.7601,302.02,73,97,3.15,PH
465,hatsukaichi,34.5927,132.204,282.14,88,60,0.43,JP
466,linares,38.0333,-3.5837,288.98,54,59,0.91,ES
467,zalingei,12.6763,23.7852,298.96,23,63,1.33,SD
468,fellsmere,27.7872,-80.9549,303.7,45,3,3.43,US
469,keningau,4.591,116.6938,294.1,99,49,0.38,MY
470,lockwood,46.4706,-107.8833,288.87,38,84,4.82,US
471,igrim,64.123,62.444,272.37,71,100,4.14,RU
472,kulu,31.9286,77.4642,267.89,55,2,3.04,IN
473,doctor arroyo,24.0695,-100.0764,300.68,19,96,0.85,MX
474,ath thawrah,35.9985,38.3598,295.69,45,6,1.0,SY
475,sitia,35.8572,26.1273,295.67,80,25,6.24,GR
476,qashar,53.2365,62.5559,276.06,96,100,7.92,KZ
477,troitsko-pechorsk,62.8702,57.0161,272.21,77,95,5.43,RU
478,kenora,51.1681,-94.1136,280.88,90,100,3.38,CA
479,bucak,37.3666,30.7627,290.37,75,51,1.83,TR
480,phang nga,8.9123,98.1297,300.39,78,100,1.54,TH
481,luganville,-15.1782,165.4452,299.59,83,100,5.49,VU
482,zykovo,55.7903,93.1759,275.97,65,54,8.71,RU
483,nuku'alofa,-21.602,-175.8797,296.34,88,52,4.01,TO
484,barrancas,11.1698,-73.0971,301.61,78,93,2.8,CO
485,sishilichengzi,42.0048,86.8895,284.57,51,6,2.87,CN
486,chongwe,-15.7907,28.9862,300.06,61,100,2.16,ZW
487,napoleon,41.4466,-84.2848,284.21,87,100,1.54,US
488,tinajo,30.1596,-13.9921,296.54,76,100,10.7,ES
489,tyrnyauz,43.226,43.1078,283.61,73,91,1.96,RU
490,bolobo,-2.4929,15.9216,295.57,91,100,1.16,CG
491,takoradi,4.691,-1.8079,299.82,86,67,5.28,GH
492,xacmaz,41.3095,48.8557,289.77,44,0,2.45,AZ
493,pangai,-19.0319,-175.9031,297.79,79,100,3.35,TO
494,jetpur,21.851,70.5581,299.63,54,4,1.13,IN
495,naryn,40.574,77.4502,274.8,39,97,0.82,CN
496,parkersburg,38.9608,-81.1313,289.21,59,64,4.41,US
497,yangquan,38.3258,113.5772,281.21,35,0,2.53,CN
498,fort st. john,56.4698,-121.5011,274.23,79,100,2.47,CA
499,sokcho,38.9373,129.7775,288.28,55,1,7.5,KR
500,concepcion,-17.4377,-60.5333,314.99,14,75,2.56,BO
501,pechora,65.2845,56.4898,271.12,77,58,5.92,RU
502,tanjung pinang,0.1332,104.3623,301.53,74,100,2.82,ID
503,as samawah,29.6363,44.4239,298.27,23,99,5.04,SA
504,mossoro,-5.3233,-37.1745,301.8,62,86,8.22,BR
505,kamenka,51.1983,42.8111,277.41,69,100,4.74,RU
506,kushiro,41.3206,144.2153,283.92,53,100,12.89,JP
507,bei'an,48.9246,126.6291,272.4,85,9,3.75,CN
508,maitum,5.5305,124.0506,301.64,72,78,1.23,PH
509,chimore,-16.504,-65.4906,312.94,22,59,3.59,BO
510,metlili chaamba,30.3666,3.9146,297.65,25,33,6.0,DZ
511,novhorodka,48.1356,32.3654,289.76,71,36,3.82,UA
512,puduvayal,13.3401,80.1619,302.02,81,100,4.2,IN
513,saynshand,44.692,111.2377,279.15,35,0,2.66,MN
514,jatai,-18.248,-51.5892,304.9,36,69,3.72,BR
515,zabid,14.0522,42.7095,302.57,75,54,10.71,YE
516,suzhou,31.3626,120.7164,287.33,71,53,1.83,CN
517,kayan,16.8392,96.7133,299.04,83,17,2.31,MM
518,richfield,39.1289,-112.7865,297.56,29,0,1.61,US
519,arinos,-16.3259,-45.5142,304.56,41,97,2.48,BR
520,ha giang,22.3103,104.7055,290.5,85,14,0.5,VN
521,lethem,2.3151,-58.8488,303.45,57,87,0.31,GY
522,bosaso,10.6759,48.9517,296.5,65,79,2.32,SO
